[
  {
    "title": "왕가마솥돼지국밥",
    "category": "한식",
    "visitorReviews": 368,
    "blogReviews": 39,
    "description": "부드러운 고기로 즐기는 국밥 한 그릇",
    "address": "부산 기장군 장안읍 좌천로 72 왕가마솥돼지국밥",
    "businessHours": "영업 중\n15:00에 브레이크타임\n15시 0분에 브레이크타임",
    "phone": "051-727-9099",
    "imageUrl": "https://search.pstatic.net/common/?autoRotate=true&type=w560_sharpen&src=https%3A%2F%2Fldb-phinf.pstatic.net%2F20241112_77%2F17313639638085gxWD_JPEG%2F1081.jpg",
    "url": "https://naver.me/FQVBxkPP"
  },
  {
    "title": "진소집밥",
    "category": "한식",
    "visitorReviews": 104,
    "blogReviews": 20,
    "description": "재첩국의 깊은 국물과 풍성한 반찬",
    "address": "부산 기장군 일광읍 일광로 757",
    "businessHours": "영업 중\n20:00에 영업 종료\n20시 0분에 영업 종료",
    "phone": "051-727-8740",
    "imageUrl": "https://search.pstatic.net/common/?autoRotate=true&type=w560_sharpen&src=https%3A%2F%2Fpup-review-phinf.pstatic.net%2FMjAyNDEyMzFfMjMw%2FMDAxNzM1NjE1ODg0ODAw.8UPjQy7wiHvs6Ta2qCHGTzuWWDRuiEXyZAVZtrxZ7fAg.aJSgFrSHzb9AjLIWUmONJRa_MLsFeC0tbBZdZcoDHK0g.JPEG%2F1000074799.jpg.jpg",
    "url": "https://naver.me/5S9Q29OA"
  },
  {
    "title": "두부나라",
    "category": "두부요리",
    "visitorReviews": 168,
    "blogReviews": 30,
    "description": "푸짐한 밑반찬과 함께하는 순두부 한상",
    "address": "부산 기장군 장안읍 좌천로 111-1 기륭산업",
    "businessHours": "영업 중\n20:00에 영업 종료\n20시 0분에 영업 종료",
    "phone": "051-727-3775",
    "imageUrl": "https://search.pstatic.net/common/?autoRotate=true&type=w560_sharpen&src=https%3A%2F%2Fpup-review-phinf.pstatic.net%2FMjAyNTAyMjFfMjcz%2FMDAxNzQwMTIzMjkxMTI0.zVeaEbzx4SyOZfzpv0UqDKpJ7tDH4-4bxKXJmaEU_Ugg.T8jKFkmXCLkXAfQvVHBiu_HQqj1WTPDbyWjk5ShV2-cg.JPEG%2FF1738263-7E2D-4C5A-8BC4-878B14A38B0C.jpeg",
    "url": "https://naver.me/FxFtUjhG"
  },
  {
    "url": "https://naver.me/5HkwlmtS",
    "title": "낙지볶음 개미집",
    "category": "한식",
    "visitorReviews": 37,
    "blogReviews": 17,
    "description": "친절한 서비스와 함께하는 낙곱새 식사",
    "address": "부산 기장군 장안읍 해맞이로 13",
    "businessHours": "영업 중\n21:00에 영업 종료\n21시 0분에 영업 종료",
    "phone": "051-728-6679",
    "imageUrl": "https://search.pstatic.net/common/?autoRotate=true&type=w560_sharpen&src=https%3A%2F%2Fldb-phinf.pstatic.net%2F20240220_236%2F1708400585938T9N5z_JPEG%2F1000006182.jpg"
  },
  {
    "url": "https://naver.me/xjgZXuce",
    "title": "세실곰탕 좌천점",
    "category": "곰탕,설렁탕",
    "visitorReviews": 106,
    "blogReviews": 7,
    "description": "농림축산식품부 제공\n안심식당",
    "address": "부산 기장군 장안읍 좌천5길 26-5",
    "businessHours": "영업 중\n15:00에 브레이크타임\n15시 0분에 브레이크타임",
    "phone": "0507-1474-0182",
    "imageUrl": "https://search.pstatic.net/common/?autoRotate=true&type=w560_sharpen&src=https%3A%2F%2Fldb-phinf.pstatic.net%2F20210318_204%2F1616062471149bxmQY_JPEG%2FbDFusaZDl3M-g7Xg2kRfNPMP.jpeg.jpg"
  },
  {
    "url": "https://naver.me/GV2JVAPm",
    "title": "짜봉 본점",
    "category": "중식당",
    "visitorReviews": 478,
    "blogReviews": 42,
    "description": "탱글한 면발과 깔끔한 짬뽕의 조화",
    "address": "부산 기장군 장안읍 해맞이로 17",
    "businessHours": "영업 중\n21:00에 영업 종료\n21시 0분에 영업 종료",
    "phone": "051-727-1236",
    "imageUrl": "https://search.pstatic.net/common/?autoRotate=true&type=w560_sharpen&src=https%3A%2F%2Fldb-phinf.pstatic.net%2F20200620_85%2F1592639617656qKCU1_JPEG%2FldehIhizNklO53HbzxtqYHam.jpg"
  }
]